[
	{
		"title": "Aadita - The Beginning",
		"address": "Flat No. 301, Satya Sadan, F-5, Madhura Nagar. Opp Abhiruchi Swagruha Sweets, Above United Bank Of India, Yousufguda",
		"description": "The children with Autism are provided with the services required for mainstreaming. The sensory integration and school readiness skills are necessary to prepare them to go into the society. The prime area focused by Aadita is the social skills. The child who is integrated in regular schools learns few letters, concepts but the area of prime concern is the social skills. After giving a deep thought about it Aadita is conducting social skill training which is giving excellent results. Our parental feed back speaks about it.",
		"contact": "+91 040 2373-7201, 99853-09290 / 97014-57346, 98851-40696 / 99891-37873",
		"locality": "yousufguda",
		"lat": "17.436590200",
		"lan": "78.434195000"
	},

	{
		"title": "Don Bosco Navajeevan Rehabilitation Center",
		"address": "Pragathi Nagar, Ramanthapur, Hyderabad - 500013",
		"description": "Area Of Activity: Rehabilation of abondonned & street children & educating them towards job oriented cources (Electronics, Refrigeration, Computers, Driving, Tailoring)",
		"contact": "040-2703-3112",
		"locality": "ramanthapur",
		"lat": "17.395077000",
		"lan": "78.543352000"
	},

	{
		"title": "Thakur Hari Prasad Institute Of Research & Rehabilitation For The Mentally Handicapped",
		"address": "Vivekananda Nagar, Kamala Nagar, Road Number 3, Dilsukhnagar, Hyderabad - 500060",
		"description": "The THP Institute was established in 1968 by Thakur Hari Prasad, whose oldest son was mentally handicapped. Since then, the institute has established itself as one of the premier institutions of care for the mentally disabled.",
		"contact": "2404-6733, 2404-5454",
		"locality": "dilsukhnagar",
		"lat": "17.364614000",
		"lan": "78.530425000"
	},

	{
		"title": "Birdwatcher's Society Of Andhra Pradesh",
		"address": "8-2-545, P O Box Number 45, Road Number 7, Banjara Hills, Hyderabad - 50003",
		"description": "NGO With Membership, Interested In Birds And Natural History",
		"contact": "2335-0683",
		"locality": "banjara hills",
		"lat": "17.414129000",
		"lan": "78.451045000"
	},

	{
		"title": "Blue Cross Of Hyderabad",
		"address": "Plot Number 403/9, Road Number 35, Jubilee Hills, Hyderabad - 500033",
		"description": "The Blue Cross Of Hyderabad was conceptualized by Amala Akkineni, Nagarjuna Akkineni and Dr. Vijaya Kumar (from the Dept of Animal Husbandry, AP), and formally registered as a society in 1993. Initially set up as an animal rescue service, the Blue Cross additionally offers an impressive range of services for animals. It would surprise you to know that since its inception, the Society has successfully helped 90,295 animals as we write this in early 2004",
		"contact": "2354-4355, 2354-5523, 3298-9858",
		"locality": "jubilee hills",
		"lat": "17.440682000",
		"lan": "78.404585000"
	},

	{
		"title": "Brahma Kumaris - Shanti Sarovar",
		"address": "Academy For A Better World, ISB Road, Lane Beside Pullela Gopichand Badminton Academy, Gachibowli, Hyderabad - 500032",
		"description": "Not available",
		"contact": "2300-1234, 3241-8177 ",
		"locality": "gachibowli",
		"lat": "17.437847000",
		"lan": "78.351370000"
	},

	{
		"title": "Ambedkar Bhavan, A P Study Circle (Social Welfare Dept)",
		"address": "Lower Tank Bund Road, Domalguda, Hyderabad - 500029",
		"description": "Free coaching for SC/ST students for competitive exams.",
		"contact": "2762-1453, 2762-1454",
		"locality": "domalguda",
		"lat": "17.417079000",
		"lan": "78.481814000"
	},

	{
		"title": "Sri Ramchandra Mission",
		"address": "83, Yogashram, 1-2-593/3/2, Gagan Mahal Road, Domalguda, Hyderabad - 500029 ",
		"description": "Not available",
		"contact": "2763-1462 ",
		"locality": "domalguda",
		"lat": "17.411110000",
		"lan": "78.481231000"
	},

	{
		"title": "AP Mahila Samithi Society",
		"address": "Plot Number 39, Aravindh Nagar Colony, Domalguda, Hyderabad - 500029",
		"description": "Not available",
		"contact": "2760-0258 ",
		"locality": "domalguda",
		"lat": "17.428221000",
		"lan": "78.546844000"
	},

	{
		"title": "",
		"address": "",
		"description": "",
		"contact": "",
		"locality": ""
	}

]
